code,city,country,lat,lon
ITA,MILAN,ITALY,45.46,9.17
DEU,BERLIN,GERMANY,52.52,13.40
ESP,VALENCIA,SPAIN,39.47,-0.38
PER,LIMA,PERU,-12.05,-77.04
ZNZ,ZANZIBAR,TANZANIA,-6.13,39.31
TYO,TOKYO,JAPAN,35.68,139.76
BKK,BANGKOK,THAILAND,13.75,100.48
DEL,DELHI,INDIA,29.01,77.38
SIN,SINGAPORE,SINGAPOR,1.36,103.75
BSB,BRASILIA,BRAZIL,-15.67,-47.43
RIO,RIO DE JANEIRO,BRAZIL,-22.90,-43.24
YTO,TORONTO,CANADA,43.64,-79.40
SEA,SEATTLE,USA,47.61,-122.33